$GPRMC,201034,A,4702.4040,N,00818.3281,E,0.0,328.4,260807,0.6,E,A*17
$GPRMC,201124,A,4702.3947,N,00818.3372,E,0.3,328.4,260807,0.6,E,A*10
$GPRMC,201126,A,4702.3944,N,00818.3381,E,0.0,328.4,260807,0.6,E,A*1E
$GPRMC,,V,,,,,,,300510,0.6,E,N*39
$GPRMB,V,,,,,,,,,,,,V,N*04
$GPGGA,,,,,,0,03,,,M,,M,,*65
$GPGSA,A,1,05,08,,,,17,,,,,,,,,*15
$GPGSV,3,1,10,05,07,188,29,08,15,075,35,09,40,277,00,12,20,212,00*75
$GPGSV,3,2,10,15,82,225,20,17,24,120,44,18,28,302,00,22,06,330,00*77
$GPGSV,3,3,10,27,45,280,00,28,41,053,00*7F
$GPGLL,,,,,,V,N*64
$GPBOD,,T,,M,,*47
$GPVTG,,T,,M,,N,,K,N*2C
$PGRME,,M,,M,,M*00
$PGRMZ,1495,f,*11
$PGRMM,WGS 84*06
$HCHDG,45.8,,,0.6,E*16
$GPRTE,1,1,c,*37
$GPRMC,,V,,,,,,,300510,0.6,E,N*39
$GPRMB,V,,,,,,,,,,,,V,N*04
$GPGGA,,,,,,0,03,,,M,,M,,*65
$GPGSA,A,1,05,08,,,,17,,,,,,,,,*15
$GPGSV,3,1,10,05,07,188,24,08,15,075,35,09,40,277,00,12,20,212,00*78
$GPGSV,3,2,10,15,82,225,19,17,24,120,44,18,28,302,00,22,06,330,00*7D
$GPGSV,3,3,10,27,45,280,00,28,41,053,00*7F
$GPGLL,,,,,,V,N*64
$GPBOD,,T,,M,,*47
$GPVTG,,T,,M,,N,,K,N*2C
$PGRME,,M,,M,,M*00
$PGRMZ,1494,f,*10
$PGRMM,WGS 84*06
$HCHDG,46.2,,,0.6,E*1F
$GPRTE,1,1,c,*37
$GPRMC,,V,,,,,,,300510,0.6,E,N*39
$GPRMB,V,,,,,,,,,,,,V,N*04
$GPGGA,,,,,,0,03,,,M,,M,,*65
$GPGSA,A,1,05,08,,,,17,,,,,,,,,*15
$GPGSV,3,1,10,05,07,188,23,08,15,075,35,09,40,277,00,12,20,212,00*7F
$GPGSV,3,2,10,15,82,225,19,17,24,120,44,18,28,302,00,22,06,330,00*7D
$GPGSV,3,3,10,27,45,280,00,28,41,053,00*7F
$GPGLL,,,,,,V,N*64
$GPBOD,,T,,M,,*47
$GPVTG,,T,,M,,N,,K,N*2C
$PGRME,,M,,M,,M*00
$PGRMZ,1494,f,*10
$PGRMM,WGS 84*06
$HCHDG,46.5,,,0.6,E*18
$GPRTE,1,1,c,*37
$GPRMC,,V,,,,,,,300510,0.6,E,N*39
$GPRMB,V,,,,,,,,,,,,V,N*04
$GPGGA,,,,,,0,03,,,M,,M,,*65
$GPGSA,A,1,05,08,,,,17,,,,,,,,,*15
$GPGSV,3,1,10,05,07,188,23,08,15,075,35,09,40,277,00,12,20,212,00*7F
$GPGSV,3,2,10,15,82,225,19,17,24,120,44,18,28,302,00,22,06,330,00*7D
$GPGSV,3,3,10,27,45,280,00,28,41,053,00*7F
$GPGLL,,,,,,V,N*64
$GPBOD,,T,,M,,*47
$GPVTG,,T,,M,,N,,K,N*2C
$PGRME,,M,,M,,M*00
$PGRMZ,1494,f,*10
$PGRMM,WGS 84*06
$HCHDG,46.6,,,0.6,E*1B
$GPRTE,1,1,c,*37
$GPRMC,,V,,,,,,,300510,0.6,E,N*39
$GPRMB,V,,,,,,,,,,,,V,N*04
$GPGGA,,,,,,0,03,,,M,,M,,*65
$GPGSA,A,1,05,08,,,,17,,,,,,,,,*15
$GPGSV,3,1,10,05,07,188,24,08,15,075,35,09,40,277,25,12,20,212,00*7F
$GPGSV,3,2,10,15,82,225,18,17,24,120,44,18,28,302,00,22,06,330,00*7C
$GPGSV,3,3,10,27,45,280,00,28,41,053,00*7F
$GPGLL,,,,,,V,N*64
$GPBOD,,T,,M,,*47
$GPVTG,,T,,M,,N,,K,N*2C
$PGRME,,M,,M,,M*00
$PGRMZ,1493,f,*17
$PGRMM,WGS 84*06
$HCHDG,46.1,,,0.6,E*1C
$GPRTE,1,1,c,*37
$GPRMC,,V,,,,,,,300510,0.6,E,N*39
$GPRMB,V,,,,,,,,,,,,V,N*04
$GPGGA,,,,,,0,03,,,M,,M,,*65
$GPGSA,A,1,05,08,,,,17,,,,,,,,,*15
$GPGSV,3,1,10,05,07,188,24,08,15,075,35,09,40,277,25,12,20,212,00*7F
$GPGSV,3,2,10,15,82,225,18,17,24,120,44,18,28,302,00,22,06,330,00*7C
$GPGSV,3,3,10,27,46,281,00,28,41,053,00*7D
$GPGLL,,,,,,V,N*64
$GPBOD,,T,,M,,*47
$GPVTG,,T,,M,,N,,K,N*2C
$PGRME,,M,,M,,M*00
$PGRMZ,1493,f,*17
$PGRMM,WGS 84*06
$HCHDG,47.4,,,0.6,E*18
$GPRTE,1,1,c,*37
$GPRMC,,V,,,,,,,300510,0.6,E,N*39
$GPRMB,V,,,,,,,,,,,,V,N*04
$GPGGA,,,,,,0,03,,,M,,M,,*65
$GPGSA,A,1,05,08,,,,17,,,,,,,,,*15
$GPGSV,3,1,10,05,07,188,24,08,15,075,35,09,40,277,25,12,20,212,00*7F
$GPGSV,3,2,10,15,82,225,18,17,24,120,44,18,28,302,00,22,06,330,00*7C
$GPGSV,3,3,10,27,46,281,00,28,41,053,23*7C
$GPGLL,,,,,,V,N*64
$GPBOD,,T,,M,,*47
$GPVTG,,T,,M,,N,,K,N*2C
$PGRME,,M,,M,,M*00
$PGRMZ,1493,f,*17
$PGRMM,WGS 84*06
$HCHDG,48.7,,,0.6,E*14
$GPRTE,1,1,c,*37
$GPRMC,,V,,,,,,,300510,0.6,E,N*39
$GPRMB,V,,,,,,,,,,,,V,N*04
$GPGGA,,,,,,0,03,,,M,,M,,*65
$GPGSA,A,1,05,08,,,,17,,,,,,,,,*15
$GPGSV,3,1,10,05,07,188,25,08,15,075,35,09,40,277,25,12,20,212,00*7E
$GPGSV,3,2,10,15,82,225,19,17,24,120,44,18,28,302,00,22,06,330,00*7D
$GPGSV,3,3,10,27,46,281,00,28,39,053,23*73
$GPGLL,,,,,,V,N*64
$GPBOD,,T,,M,,*47
$GPVTG,,T,,M,,N,,K,N*2C
$PGRME,,M,,M,,M*00
$PGRMZ,1495,f,*11
$PGRMM,WGS 84*06
$HCHDG,49.3,,,0.6,E*11
$GPRTE,1,1,c,*37
$GPRMC,,V,,,,,,,300510,0.6,E,N*39
$GPRMB,V,,,,,,,,,,,,V,N*04
$GPGGA,,,,,,0,03,,,M,,M,,*65
$GPGSA,A,1,05,08,,,,17,,,,,,,,,*15
$GPGSV,3,1,10,05,07,188,25,08,15,075,35,09,40,277,25,12,20,212,00*7E
$GPGSV,3,2,10,15,82,225,19,17,24,120,44,18,28,302,00,22,06,330,00*7D
$GPGSV,3,3,10,27,46,281,00,28,39,053,00*72
$GPGLL,,,,,,V,N*64
$GPBOD,,T,,M,,*47
$GPVTG,,T,,M,,N,,K,N*2C
$PGRME,,M,,M,,M*00
$PGRMZ,1494,f,*10
$PGRMM,WGS 84*06
$HCHDG,50.2,,,0.6,E*18
$GPRTE,1,1,c,*37
$GPRMC,,V,,,,,,,300510,0.6,E,N*39
$GPRMB,V,,,,,,,,,,,,V,N*04
$GPGGA,,,,,,0,03,,,M,,M,,*65
$GPGSA,A,1,05,08,,,,17,,,,,,,,,*15
$GPGSV,3,1,10,05,07,188,25,08,15,075,35,09,40,277,25,12,20,212,00*7E
$GPGSV,3,2,10,15,82,225,24,17,24,120,44,18,28,302,00,22,06,330,00*73
$GPGSV,3,3,10,27,46,281,00,28,39,053,00*72
$GPGLL,,,,,,V,N*64
$GPBOD,,T,,M,,*47
$GPVTG,,T,,M,,N,,K,N*2C
$PGRME,,M,,M,,M*00
$PGRMZ,1494,f,*10
$PGRMM,WGS 84*06
$HCHDG,50.3,,,0.6,E*19
$IIMWV,084.0,R,10.4,N,A*04
$IIMWV,084.0,T,10.4,N,A*02
$IIVWR,084.0,R,10.4,N,5.4,M,19.3,K*4A
$IIVWT,084.0,R,10.4,N,5.4,M,19.3,K*4C
$IIDBT,9.3,f,2.84,M,1.55,F*14
$IIVLW,7803.2,N,0.00,N*43
$IIVHW,,T,211.0,M,0.00,N,0.00,K*79
$IIMTW,9.5,C*2F

# Garmin g12
$GPRMC,183729,A,3907.356,N,12102.482,W,000.0,360.0,080301,015.5,E*6F
$GPRMB,A,,,,,,,,,,,,V*71
$GPGGA,183730,3907.356,N,12102.482,W,1,05,1.6,646.4,M,-24.1,M,,*75
$GPGSA,A,3,02,,,07,,09,24,26,,,,,1.6,1.6,1.0*3D
$GPGSV,2,1,08,02,43,088,38,04,42,145,00,05,11,291,00,07,60,043,35*71
$GPGSV,2,2,08,08,02,145,00,09,46,303,47,24,16,178,32,26,18,231,43*77
$PGRME,22.0,M,52.9,M,51.0,M*14
$GPGLL,3907.360,N,12102.481,W,183730,A*33
$PGRMZ,2062,f,3*2D
$PGRMM,WGS 84*06
$GPBOD,,T,,M,,*47
$GPRTE,1,1,c,0*07
$GPRMC,183731,A,3907.482,N,12102.436,W,000.0,360.0,080301,015.5,E*67
$GPRMB,A,,,,,,,,,,,,V*71

# Garmin etrex summit
$GPRMC,002454,A,3553.5295,N,13938.6570,E,0.0,43.1,180700,7.1,W,A*3F
$GPRMB,A,,,,,,,,,,,,A,A*0B
$GPGGA,002454,3553.5295,N,13938.6570,E,1,05,2.2,18.3,M,39.0,M,,*7F
$GPGSA,A,3,01,04,07,16,20,,,,,,,,3.6,2.2,2.7*35
$GPGSV,3,1,09,01,38,103,37,02,23,215,00,04,38,297,37,05,00,328,00*70
$GPGSV,3,2,09,07,77,299,47,11,07,087,00,16,74,041,47,20,38,044,43*73
$GPGSV,3,3,09,24,12,282,00*4D
$GPGLL,3553.5295,N,13938.6570,E,002454,A,A*4F
$GPBOD,,T,,M,,*47
$PGRME,8.6,M,9.6,M,12.9,M*15
$PGRMZ,51,f*30
$HCHDG,101.1,,,7.1,W*3C
$GPRTE,1,1,c,*37
$GPRMC,002456,A,3553.5295,N,13938.6570,E,0.0,43.1,180700,7.1,W,A*3D

# Garmin etrex Vista release 2.42
$GPRMC,023042,A,3907.3837,N,12102.4684,W,0.0,156.1,131102,15.3,E,A*36
$GPRMB,A,,,,,,,,,,,,A,A*0B
$GPGGA,023042,3907.3837,N,12102.4684,W,1,04,2.3,507.3,M,-24.1,M,,*75
$GPGSA,A,3,04,05,,,09,,,24,,,,,2.8,2.3,1.0*36
$GPGSV,3,2,11,09,47,229,42,10,04,157,00,14,00,305,00,24,70,154,33*79
$GPGLL,3907.3837,N,12102.4684,W,023042,A,A*5E
$GPBOD,,T,,M,,*47
$GPVTG,156.1,T,140.9,M,0.0,N,0.0,K*41
$PGRME,8.4,M,23.8,M,25.7,M*2B
$PGRMZ,1735,f*34
$PGRMM,WGS 84*06
$HCHDG,,,,15.3,E*30
$GPRTE,1,1,c,*37
$GPRMC,023044,A,3907.3840,N,12102.4692,W,0.0,156.1,131102,15.3,E,A*37

# Garmin basic yellow etrex European version
$GPRMC,152926,V,6027.8259,N,02225.6713,E,10.8,0.0,190803,5.9,E,S*22
$GPRMB,V,,,,,,,,,,,,A,S*0E
$GPGGA,152926,6027.8259,N,02225.6713,E,8,09,2.0,44.7,M,20.6,M,,*79
$GPGSA,A,3,07,08,09,11,18,23,26,28,29,,,,6.6,2.0,3.0*38
$GPGSV,3,1,09,07,29,138,44,08,22,099,42,09,30,273,44,11,07,057,35*75
$GPGSV,3,2,09,18,28,305,43,23,14,340,39,26,64,222,49,28,60,084,49*7E
$GPGSV,3,3,09,29,52,187,48*4E
$GPGLL,6027.8259,N,02225.6713,E,152926,V,S*48
$GPBOD,,T,,M,,*47
$PGRME,15.0,M,22.5,M,15.0,M*1B
$PGRMZ,147,f,3*19
$GPRTE,1,1,c,*37
$GPRMC,152928,V,6027.8319,N,02225.6713,E,10.8,0.0,190803,5.9,E,S*29

# Magellan GPS companion
$GPGGA,184050.84,3907.3839,N,12102.4772,W,1,05,1.8,00543,M,,,,*33
$GPRMC,184050.84,A,3907.3839,N,12102.4772,W,00.0,000.0,080301,15,E*54
$GPGSA,A,3,24,07,09,26,05,,,,,,,,03.6,01.8,03.1*05
$PMGNST,02.12,3,T,534,05.0,+03327,00*40
$GPGLL,3907.3839,N,12102.4771,W,184051.812,A*2D
$GPGGA,184051.81,3907.3839,N,12102.4771,W,1,05,1.8,00543,M,,,,*34
$GPRMC,184051.81,A,3907.3839,N,12102.4771,W,00.0,000.0,080301,15,E*53
$GPGSA,A,3,24,07,09,26,05,,,,,,,,03.6,01.8,03.1*05
$GPGSV,3,1,08,07,57,045,43,09,48,303,48,04,44,144,,02,39,092,*7F
$GPGSV,3,2,08,24,18,178,44,26,17,230,41,05,13,292,43,08,01,147,*75
$GPGSV,3,3,08,,,,,,,,,,,,,,,,*71
$GPGLL,3907.3840,N,12102.4770,W,184052.812,A*21

# Magellan 315
$GPAPB,A,A,0.0,L,N,,,1.1,M,SIM002,1.1,M,,,*21
$GPGSA,A,3,01,02,03,04,,,,,,,,,2.0,2.0,2.0*34
$GPGSV,3,1,11,01,77,103,,13,53,215,,04,47,300,,20,47,090,*76
$GPGSV,3,2,11,19,24,158,,07,21,237,,25,16,039,,24,11,315,*73
$GPGSV,3,3,11,11,08,149,,27,00,179,,30,00,354,,,,,*46
$GPGLL,5100.2111,N,00500.0006,E,104715.203,A*37
$GPGGA,104715.20,5100.2111,N,00500.0006,E,1,04,2.0,-0047,M,,,,*39
$GPRMB,A,0.00,L,SIM001,SIM002,5102.6069,N,00500.0000,E,002.4,000.,021.7,V*0D
$GPRMC,104715.20,A,5100.2111,N,00500.0006,E,21.7,003.0,140801,01.,W*70
$GPAPB,A,A,0.0,L,N,,,1.1,M,SIM002,1.1,M,,,*21
$GPGSA,A,3,01,02,03,04,,,,,,,,,2.0,2.0,2.0*34

# Raytheon RN300
$GPGGA,171537,3350.975,N,11823.991,W,2,07,1.1,-25.8,M,,M,1.8,,D*17
$GPGLL,3350.975,N,11823.991,W,171537,A,D*50
$GPRMC,171537,A,3350.975,N,11823.991,W,0.0,096.5,060401,013.0,E,D*07
$GPVTG,096.5,T,083.5,M,0.0,N,0.0,K,D*22
$GPGSA,A,2,04,09,07,24,02,05,26,,,,,,,1.1,*3C
$GPGSV,2,1,07,04,62,120,47,09,52,292,53,07,42,044,41,24,38,179,45*7B
$GPGSV,2,2,07,02,34,101,43,05,18,304,40,26,09,223,36,,,,*48
$PRAYA,6,1,122,0,0,2,36,1,1,,,,,*5A
$GPDTM,W84,,0.000000,N,0.000000,E,0.0,W84*6F
$GPGGA,171538,3350.974,N,11823.991,W,2,07,1.1,-25.8,M,,M,1.8,,D*19

# NavMan 3400
$GPGGA,230611.016,3907.3813,N,12102.4635,W,0,04,5.7,507.9,M,,,,0000*11
$GPGLL,3907.3813,N,12102.4635,W,230611.016,V*31
$GPGSA,A,1,27,08,28,13,,,,,,,,,21.7,5.7,20.9*38
$GPGSV,3,1,10,27,68,048,42,08,63,326,43,28,48,239,40,13,39,154,39*7E
$GPGSV,3,2,10,31,38,069,34,10,23,282,,03,12,041,,29,09,319,*7C
$GPGSV,3,3,10,23,07,325,,01,05,145,*7E
$GPRMC,230611.016,V,3907.3813,N,12102.4635,W,0.14,136.40,041002,,*04
$GPVTG,136.40,T,,M,0.14,N,0.3,K*66
$GPGGA,230612.015,3907.3815,N,12102.4634,W,0,04,5.7,508.3,M,,,,0000*13

# Earhmate with SiRF chipset (firmware 2.31)
$GPGGA,120557.916,5058.7456,N,00647.0515,E,2,06,1.7,108.5,M,47.6,M,1.5,0000*7A
$GPGSA,A,3,20,11,25,01,14,31,,,,,,,2.6,1.7,1.9*3B
$GPGSV,2,1,08,11,74,137,45,20,58,248,43,07,27,309,00,14,23,044,36*7A
$GPGSV,2,2,08,01,14,187,41,25,13,099,39,31,11,172,37,28,09,265,*71
$GPRMC,120557.916,A,5058.7456,N,00647.0515,E,0.00,82.33,220503,,*39
$GPGGA,120558.916,5058.7457,N,00647.0514,E,2,06,1.7,109.0,M,47.6,M,1.5,0000*71

# Evermore GM-305
$GPGGA,001430.003,3907.3885,N,12102.4767,W,1,05,02.1,00545.6,M,-26.0,M,,*5F
$GPGSA,A,3,15,18,14,,,31,,,23,,,,04.5,02.1,04.0*0F
$GPGSV,3,1,10,15,48,123,35,18,36,064,36,14,77,186,39,03,36,239,29*7A
$GPGSV,3,2,10,09,08,059,,31,35,276,35,17,10,125,,11,08,306,*79
$GPGSV,3,3,10,23,41,059,37,25,06,173,*70
$GPRMC,001430.003,A,3907.3885,N,12102.4767,W,000.0,175.3,220403,015.4,E*71
$GPGGA,001431.003,3907.3885,N,12102.4767,W,1,05,02.1,00545.5,M,-26.0,M,,*5D

# Sony
$GPVTG,139.7,T,,M,010.3,N,019.1,K*67
$GPGGA,050306,4259.8839,N,07130.3922,W,0,00,99.9,0010,M,,M,000,0000*66
$GPGLL,4259.8839,N,07130.3922,W,050306,V*20
$GPRMC,050306,V,4259.8839,N,07130.3922,W,010.3,139.7,291003,,*10
$GPZDA,050306,29,10,2003,,*43
$GPGSA,A,1,,,,,,,,,,,,,99.9,99.9,99.9*09
$PSNY,0,00,05,500,06,06,06,06*14

# ublox
$GPRMC,162254.00,A,3723.02837,N,12159.39853,W,0.820,188.36,110706,,,A*74
$GPVTG,188.36,T,,M,0.820,N,1.519,K,A*3F
$GPGGA,162254.00,3723.02837,N,12159.39853,W,1,03,2.36,525.6,M,-25.6,M,,*65
$GPGSA,A,2,25,01,22,,,,,,,,,,2.56,2.36,1.00*02
$GPGSV,4,1,14,25,15,175,30,14,80,041,,19,38,259,14,01,52,223,18*76
$GPGSV,4,2,14,18,16,079,,11,19,312,,14,80,041,,21,04,135,25*7D
$GPGSV,4,3,14,15,27,134,18,03,25,222,,22,51,057,16,09,07,036,*79
$GPGSV,4,4,14,07,01,181,,15,25,135,*76
$GPGLL,3723.02837,N,12159.39853,W,162254.00,A,A*7C
$GPZDA,162254.00,11,07,2006,00,00*63

# ublox
$PASHR,085335.000,224.19,T,-01.26,+00.83,+00.00,0.101,0.113,0.267,1,0*06
$PUBX,00,081350.00,4717.113210,N,00833.915187,E,546.589,G3,2.1,2.0,0.007,77.52,0+.007,,0.92,1.19,0.77,9,0,0*5F
$PUBX,01,075142.00,467125.245,E,5236949.763,N,498.235,G3,2.1,1.9,0.005,85.63,0.0+00,,0.78,0.90,0.52,12,0,0*65
$PUBX,03,11,23,-,,,45,010,29,-,,,46,013,07,-,,,42,015,08,U,067,31,42,025,10,U,19+5,33,46,026,18,U,326,08,39,026,17,-,,,32,015,26,U,306,66,48,025,27,U,073,10,36,+026,28,U,089,61,46,024,15,-,,,39,014*0D
$PUBX,04,073731.00,091202,113851.00,1196,113851.00,1930035,-2660.664,43,*3C

